{"888":{"name":"Zaca House","bid":"888","center":{"lat":34.40943304300005,"lng":-119.851273026},"clips":{"xmin":-119.851447747,"xmax":-119.851098305,"ymin":34.4093049130001,"ymax":34.409561173}},"546":{"name":"Woodhouse Lab","bid":"546","center":{"lat":34.4134492570001,"lng":-119.842727809},"clips":{"xmin":-119.842811277,"xmax":-119.842644341,"ymin":34.4134239680001,"ymax":34.4134745460001}},"7000":{"name":"Wood Shop","bid":"7000","center":{"lat":34.41034340100005,"lng":-119.8747719135},"clips":{"xmin":-119.874857562,"xmax":-119.874686265,"ymin":34.4102390940001,"ymax":34.410447708}},"7045":{"name":"Williamson Center","bid":"7045","center":{"lat":34.409906718500054,"lng":-119.8757779195},"clips":{"xmin":-119.876011975,"xmax":-119.875543864,"ymin":34.4097434820001,"ymax":34.410069955}},"947":{"name":"Westgate Apts","bid":"947","center":{"lat":34.416889638,"lng":-119.855714136},"clips":{"xmin":-119.85592972,"xmax":-119.855498552,"ymin":34.416607636,"ymax":34.41717164}},"354":{"name":"West Creative Studies","bid":"354","center":{"lat":34.415079167500096,"lng":-119.87027303849999},"clips":{"xmin":-119.87035762,"xmax":-119.870188457,"ymin":34.4149610580001,"ymax":34.4151972770001}},"361":{"name":"West Creative Studies","bid":"361","center":{"lat":34.40793322000005,"lng":-119.8778221135},"clips":{"xmin":-119.877918115,"xmax":-119.877726112,"ymin":34.4078353310001,"ymax":34.408031109}},"353":{"name":"West Art Studio","bid":"353","center":{"lat":34.4153405140001,"lng":-119.87024660399999},"clips":{"xmin":-119.870293502,"xmax":-119.870199706,"ymin":34.4152664490001,"ymax":34.4154145790001}},"6960":{"name":"Grade &amp; High School","bid":"6960","center":{"lat":34.410586698000046,"lng":-119.8737703955},"clips":{"xmin":-119.873897785,"xmax":-119.873643006,"ymin":34.410477115,"ymax":34.4106962810001}},"543":{"name":"University House","bid":"543","center":{"lat":34.40897634150005,"lng":-119.843982645},"clips":{"xmin":-119.844164259,"xmax":-119.843801031,"ymin":34.4088378760001,"ymax":34.409114807}},"558":{"name":"Corwin Pavilion","bid":"558","center":{"lat":34.411623095000095,"lng":-119.847051559},"clips":{"xmin":-119.847243906,"xmax":-119.846859212,"ymin":34.4114959820001,"ymax":34.4117502080001}},"373":{"name":"Transportation Services","bid":"373","center":{"lat":34.42047899500005,"lng":-119.853232241},"clips":{"xmin":-119.853248074,"xmax":-119.853216408,"ymin":34.420423413,"ymax":34.4205345770001}},"223":{"name":"Theater and Dance West (TD-W)","bid":"223","center":{"lat":34.41249213100005,"lng":-119.851463309},"clips":{"xmin":-119.851805364,"xmax":-119.851121254,"ymin":34.4122178550001,"ymax":34.412766407}},"554":{"name":"Theater and Dance East &amp; Hatlen Theater","bid":"554","center":{"lat":34.41259706550005,"lng":-119.85059968300001},"clips":{"xmin":-119.851069073,"xmax":-119.850130293,"ymin":34.412380366,"ymax":34.4128137650001}},"200":{"name":"The Reef","bid":"200","center":{"lat":34.407495765500045,"lng":-119.8435408285},"clips":{"xmin":-119.843639298,"xmax":-119.843442359,"ymin":34.4074505360001,"ymax":34.407540995}},"501":{"name":"The Arbor","bid":"501","center":{"lat":34.4141484480001,"lng":-119.846511636},"clips":{"xmin":-119.846638404,"xmax":-119.846384868,"ymin":34.4140552580001,"ymax":34.4142416380001}},"886":{"name":"Tepusquet House","bid":"886","center":{"lat":34.40894213200005,"lng":-119.8514317245},"clips":{"xmin":-119.851514767,"xmax":-119.851348682,"ymin":34.408778817,"ymax":34.4091054470001}},"877":{"name":"Tecolote House","bid":"877","center":{"lat":34.408759255000106,"lng":-119.8530914335},"clips":{"xmin":-119.853264761,"xmax":-119.852918106,"ymin":34.4086261090001,"ymax":34.4088924010001}},"7050":{"name":"Tate Center","bid":"7050","center":{"lat":34.4115506430001,"lng":-119.876596071},"clips":{"xmin":-119.876749711,"xmax":-119.876442431,"ymin":34.4114537550001,"ymax":34.4116475310001}},"489":{"name":"Sycamore Hall","bid":"489","center":{"lat":34.41633142150005,"lng":-119.843026764},"clips":{"xmin":-119.843140433,"xmax":-119.842913095,"ymin":34.416012789,"ymax":34.4166500540001}},"221":{"name":"Student Resource Building (SRB)","bid":"221","center":{"lat":34.412634714,"lng":-119.8525740325},"clips":{"xmin":-119.852988324,"xmax":-119.852159741,"ymin":34.41236437,"ymax":34.412905058}},"516":{"name":"Recreation Center (RecCen)","bid":"516","center":{"lat":34.4182331045001,"lng":-119.8490148135},"clips":{"xmin":-119.8494914,"xmax":-119.848538227,"ymin":34.4179595720001,"ymax":34.4185066370001}},"588":{"name":"Student Health","bid":"588","center":{"lat":34.4155035795001,"lng":-119.852571584},"clips":{"xmin":-119.853156198,"xmax":-119.85198697,"ymin":34.4150463410001,"ymax":34.4159608180001}},"568":{"name":"Student Affairs &amp; Administration Services (SAASB)","bid":"568","center":{"lat":34.416286808500104,"lng":-119.847279255},"clips":{"xmin":-119.847616388,"xmax":-119.846942122,"ymin":34.4159422810001,"ymax":34.4166313360001}},"589":{"name":"Storke Tower","bid":"589","center":{"lat":34.4126386555001,"lng":-119.848379405},"clips":{"xmin":-119.848418604,"xmax":-119.848340206,"ymin":34.4126070450001,"ymax":34.4126702660001}},"367":{"name":"Storage House","bid":"367","center":{"lat":34.414542801000096,"lng":-119.87057141049999},"clips":{"xmin":-119.870651915,"xmax":-119.870490906,"ymin":34.4145131930001,"ymax":34.4145724090001}},"579":{"name":"South Sewage Pump Station","bid":"579","center":{"lat":34.4120804430001,"lng":-119.849993076},"clips":{"xmin":-119.850023989,"xmax":-119.849962163,"ymin":34.4120551170001,"ymax":34.4121057690001}},"528":{"name":"South Hall","bid":"528","center":{"lat":34.41369353950005,"lng":-119.8473006685},"clips":{"xmin":-119.847723696,"xmax":-119.846877641,"ymin":34.413236736,"ymax":34.4141503430001}},"276":{"name":"Social Sciences and Media Studies (SSMS)","bid":"276","center":{"lat":34.41529422000005,"lng":-119.849291825},"clips":{"xmin":-119.849523352,"xmax":-119.849060298,"ymin":34.415191297,"ymax":34.4153971430001}},"7075":{"name":"Sieroty Center","bid":"7075","center":{"lat":34.41001221950005,"lng":-119.877047451},"clips":{"xmin":-119.877290549,"xmax":-119.876804353,"ymin":34.4098330770001,"ymax":34.410191362}},"832":{"name":"Shop","bid":"832","center":{"lat":34.4201005570001,"lng":-119.862447403},"clips":{"xmin":-119.862576344,"xmax":-119.862318462,"ymin":34.4200159310001,"ymax":34.4201851830001}},"7025":{"name":"Sewing Classroom","bid":"7025","center":{"lat":34.4100463990001,"lng":-119.87538607100001},"clips":{"xmin":-119.875473649,"xmax":-119.875298493,"ymin":34.4099458640001,"ymax":34.4101469340001}},"502":{"name":"Sea Water Pump House","bid":"502","center":{"lat":34.406700292,"lng":-119.8437081895},"clips":{"xmin":-119.843779557,"xmax":-119.843636822,"ymin":34.406631266,"ymax":34.406769318}},"818":{"name":"Santa Ynez Housing","bid":"818","center":{"lat":34.4204248420001,"lng":-119.8616996035},"clips":{"xmin":-119.861719994,"xmax":-119.861679213,"ymin":34.4204135340001,"ymax":34.4204361500001}},"527":{"name":"Santa Rosa Hall","bid":"527","center":{"lat":34.4107242870001,"lng":-119.8448247025},"clips":{"xmin":-119.84566817,"xmax":-119.843981235,"ymin":34.4100362280001,"ymax":34.4114123460001}},"548":{"name":"Santa Cruz Hall","bid":"548","center":{"lat":34.4098820110001,"lng":-119.8434542715},"clips":{"xmin":-119.844227775,"xmax":-119.842680768,"ymin":34.4094087560001,"ymax":34.4103552660001}},"587":{"name":"San Rafael Ocean Cluster","bid":"587","center":{"lat":34.4107955885001,"lng":-119.8523615935},"clips":{"xmin":-119.852619278,"xmax":-119.852103909,"ymin":34.4105721170001,"ymax":34.4110190600001}},"586":{"name":"San Rafael Hall Tower","bid":"586","center":{"lat":34.411103834500096,"lng":-119.852878964},"clips":{"xmin":-119.852966336,"xmax":-119.852791592,"ymin":34.4109851810001,"ymax":34.4112224880001}},"561":{"name":"San Nicolas Hall","bid":"561","center":{"lat":34.4094137035001,"lng":-119.8459499235},"clips":{"xmin":-119.845951587,"xmax":-119.84594826,"ymin":34.4094109530001,"ymax":34.4094164540001}},"553":{"name":"San Miguel Hall","bid":"553","center":{"lat":34.41024937500005,"lng":-119.846859544},"clips":{"xmin":-119.847296792,"xmax":-119.846422296,"ymin":34.409862434,"ymax":34.4106363160001}},"845":{"name":"San Clemente Housing - Encino","bid":"845","center":{"lat":34.418249754499996,"lng":-119.85826494450001},"clips":{"xmin":-119.858265245,"xmax":-119.858264644,"ymin":34.418245632,"ymax":34.418253877}},"846":{"name":"San Clemente Housing - Donner","bid":"846","center":{"lat":34.4182451175001,"lng":-119.8571577155},"clips":{"xmin":-119.857158017,"xmax":-119.857157414,"ymin":34.4182409950001,"ymax":34.4182492400001}},"843":{"name":"San Clemente Housing - Castaic","bid":"843","center":{"lat":34.418260971500004,"lng":-119.85632506300001},"clips":{"xmin":-119.856421288,"xmax":-119.856228838,"ymin":34.418203098,"ymax":34.418318845}},"849":{"name":"San Clemente Housing - Bradbury","bid":"849","center":{"lat":34.41823816500005,"lng":-119.85550213549999},"clips":{"xmin":-119.855502437,"xmax":-119.855501834,"ymin":34.4182340420001,"ymax":34.418242288}},"841":{"name":"San Clemente Housing - Arrowhead","bid":"841","center":{"lat":34.418233915500096,"lng":-119.8544928435},"clips":{"xmin":-119.854493145,"xmax":-119.854492542,"ymin":34.4182297930001,"ymax":34.4182380380001}},"364":{"name":"Rudy House","bid":"364","center":{"lat":34.4146799965001,"lng":-119.8697807505},"clips":{"xmin":-119.869893449,"xmax":-119.869668052,"ymin":34.4145536930001,"ymax":34.4148063000001}},"533":{"name":"Robertson Gymnasium","bid":"533","center":{"lat":34.4161810045001,"lng":-119.8492128645},"clips":{"xmin":-119.849752551,"xmax":-119.848673178,"ymin":34.4157122030001,"ymax":34.4166498060001}},"887":{"name":"Rincon House","bid":"887","center":{"lat":34.4085879565001,"lng":-119.85132303399999},"clips":{"xmin":-119.851488128,"xmax":-119.85115794,"ymin":34.4084505820001,"ymax":34.4087253310001}},"7010":{"name":"Residential Service","bid":"7010","center":{"lat":34.410442944500105,"lng":-119.875332814},"clips":{"xmin":-119.875416051,"xmax":-119.875249577,"ymin":34.4103892970001,"ymax":34.4104965920001}},"363":{"name":"Reserve Office","bid":"363","center":{"lat":34.407722577500095,"lng":-119.878257574},"clips":{"xmin":-119.878317425,"xmax":-119.878197723,"ymin":34.4076645330001,"ymax":34.4077806220001}},"376":{"name":"Rescue Office","bid":"376","center":{"lat":34.42205130700005,"lng":-119.852980756},"clips":{"xmin":-119.853043414,"xmax":-119.852918098,"ymin":34.421987286,"ymax":34.4221153280001}},"511":{"name":"RecCen Multi-Activity Center (MAC)","bid":"511","center":{"lat":34.41891172700005,"lng":-119.850274998},"clips":{"xmin":-119.850994853,"xmax":-119.849555143,"ymin":34.418581438,"ymax":34.4192420160001}},"585":{"name":"Pump Station","bid":"585","center":{"lat":34.421598801000044,"lng":-119.8538163675},"clips":{"xmin":-119.853956769,"xmax":-119.853675966,"ymin":34.4215201710001,"ymax":34.421677431}},"559":{"name":"Pump Station","bid":"559","center":{"lat":34.42164737700005,"lng":-119.85229969},"clips":{"xmin":-119.852316136,"xmax":-119.852283244,"ymin":34.421632081,"ymax":34.4216626730001}},"574":{"name":"Public Safety (Fire &amp; Police Station)","bid":"574","center":{"lat":34.4218947225001,"lng":-119.8529150495},"clips":{"xmin":-119.853373918,"xmax":-119.852456181,"ymin":34.4216493500001,"ymax":34.4221400950001}},"551":{"name":"Psychology","bid":"551","center":{"lat":34.41193674450005,"lng":-119.84506801399999},"clips":{"xmin":-119.845345457,"xmax":-119.844790571,"ymin":34.4117835160001,"ymax":34.412089973}},"411":{"name":"Psychology Lab","bid":"411","center":{"lat":34.41246976950005,"lng":-119.845620294},"clips":{"xmin":-119.845775713,"xmax":-119.845464875,"ymin":34.412395587,"ymax":34.4125439520001}},"251":{"name":"Psychology East","bid":"251","center":{"lat":34.41200427550005,"lng":-119.84459339099999},"clips":{"xmin":-119.844728948,"xmax":-119.844457834,"ymin":34.411743834,"ymax":34.4122647170001}},"429":{"name":"Psychology Annex","bid":"429","center":{"lat":34.4122402850001,"lng":-119.84554296},"clips":{"xmin":-119.845696531,"xmax":-119.845389389,"ymin":34.4121638000001,"ymax":34.4123167700001}},"277":{"name":"Pollock Theater","bid":"277","center":{"lat":34.41503859450005,"lng":-119.8488125675},"clips":{"xmin":-119.848952195,"xmax":-119.84867294,"ymin":34.414803669,"ymax":34.4152735200001}},"672":{"name":"Physical Sciences South (PSB South)","bid":"672","center":{"lat":34.41449800000005,"lng":-119.84259883550001},"clips":{"xmin":-119.842945076,"xmax":-119.842252595,"ymin":34.4143522290001,"ymax":34.414643771}},"657":{"name":"Physical Science North (PSB North)","bid":"657","center":{"lat":34.41544956600005,"lng":-119.8436627695},"clips":{"xmin":-119.844139864,"xmax":-119.843185675,"ymin":34.4152228280001,"ymax":34.415676304}},"570":{"name":"Physical Science (570)","bid":"570","center":{"lat":34.4164734995001,"lng":-119.84347246},"clips":{"xmin":-119.843568112,"xmax":-119.843376808,"ymin":34.4162962940001,"ymax":34.4166507050001}},"560":{"name":"Phelps Hall","bid":"560","center":{"lat":34.416103353000096,"lng":-119.8442448015},"clips":{"xmin":-119.844532714,"xmax":-119.843956889,"ymin":34.4159071540001,"ymax":34.4162995520001}},"569":{"name":"Pharmacology","bid":"569","center":{"lat":34.41290127450005,"lng":-119.8436612325},"clips":{"xmin":-119.843822147,"xmax":-119.843500318,"ymin":34.41276738,"ymax":34.4130351690001}},"890":{"name":"Pendola House","bid":"890","center":{"lat":34.409640868500105,"lng":-119.8520023525},"clips":{"xmin":-119.852090178,"xmax":-119.851914527,"ymin":34.4095175460001,"ymax":34.4097641910001}},"381":{"name":"Parking Services","bid":"381","center":{"lat":34.41964873150005,"lng":-119.8529075575},"clips":{"xmin":-119.853023779,"xmax":-119.852791336,"ymin":34.4195803760001,"ymax":34.419717087}},"388":{"name":"Parking Services 2","bid":"388","center":{"lat":34.41968765100005,"lng":-119.85268319400001},"clips":{"xmin":-119.852794645,"xmax":-119.852571743,"ymin":34.4196051260001,"ymax":34.419770176}},"542":{"name":"Ortega Commons","bid":"542","center":{"lat":34.4109198405001,"lng":-119.846909769},"clips":{"xmin":-119.84723773,"xmax":-119.846581808,"ymin":34.4105663490001,"ymax":34.4112733320001}},"355":{"name":"Orfalea Family Childrens Center","bid":"355","center":{"lat":34.41561032350005,"lng":-119.8707478455},"clips":{"xmin":-119.870854728,"xmax":-119.870640963,"ymin":34.4155473360001,"ymax":34.415673311}},"479":{"name":"Old Gymnasium","bid":"479","center":{"lat":34.414546309500054,"lng":-119.848135773},"clips":{"xmin":-119.848579932,"xmax":-119.847691614,"ymin":34.414343031,"ymax":34.4147495880001}},"358":{"name":"Old Aband. Campbell Barn","bid":"358","center":{"lat":34.41402808150005,"lng":-119.8697639465},"clips":{"xmin":-119.869874808,"xmax":-119.869653085,"ymin":34.413942815,"ymax":34.4141133480001}},"342":{"name":"Office of Technology and Industry Alliances","bid":"342","center":{"lat":34.40798134450005,"lng":-119.8438599065},"clips":{"xmin":-119.843939602,"xmax":-119.843780211,"ymin":34.407891035,"ymax":34.4080716540001}},"514":{"name":"Ocean Sciences Education Building (Planned)","bid":"514","center":{"lat":34.4119946510001,"lng":-119.84216705},"clips":{"xmin":-119.842286456,"xmax":-119.842047644,"ymin":34.4117514430001,"ymax":34.4122378590001}},"535":{"name":"North Hall (NH)","bid":"535","center":{"lat":34.415147881500104,"lng":-119.8466910115},"clips":{"xmin":-119.84730408,"xmax":-119.846077943,"ymin":34.4148018430001,"ymax":34.4154939200001}},"544":{"name":"Noble Hall","bid":"544","center":{"lat":34.412660555000045,"lng":-119.843622978},"clips":{"xmin":-119.844099236,"xmax":-119.84314672,"ymin":34.412210234,"ymax":34.4131108760001}},"7900":{"name":"New Horizons","bid":"7900","center":{"lat":34.4123884445001,"lng":-119.8722114805},"clips":{"xmin":-119.872479641,"xmax":-119.87194332,"ymin":34.4120938610001,"ymax":34.4126830280001}},"366":{"name":"Nature Reserve Caretaker Trailer","bid":"366","center":{"lat":34.408304350500046,"lng":-119.878515344},"clips":{"xmin":-119.878601044,"xmax":-119.878429644,"ymin":34.4082159370001,"ymax":34.408392764}},"7035":{"name":"Music Classroom","bid":"7035","center":{"lat":34.410261702500094,"lng":-119.8757719875},"clips":{"xmin":-119.875839674,"xmax":-119.875704301,"ymin":34.4102175790001,"ymax":34.4103058260001}},"531":{"name":"Arts Library (in Music Building)","bid":"531","center":{"lat":34.412218578500045,"lng":-119.84756510400001},"clips":{"xmin":-119.847744305,"xmax":-119.847385903,"ymin":34.4120663800001,"ymax":34.412370777}},"517":{"name":"Mosher Alumni House","bid":"517","center":{"lat":34.41741407600005,"lng":-119.8454195665},"clips":{"xmin":-119.845696515,"xmax":-119.845142618,"ymin":34.417256653,"ymax":34.4175714990001}},"885":{"name":"Montecito House","bid":"885","center":{"lat":34.4092616765001,"lng":-119.85157125949999},"clips":{"xmin":-119.851745908,"xmax":-119.851396611,"ymin":34.4091682310001,"ymax":34.4093551220001}},"881":{"name":"Miranda House","bid":"881","center":{"lat":34.4089281335001,"lng":-119.85247931250001},"clips":{"xmin":-119.852574798,"xmax":-119.852383827,"ymin":34.4087168170001,"ymax":34.4091394500001}},"7060":{"name":"Miramar","bid":"7060","center":{"lat":34.4112875925001,"lng":-119.876678612},"clips":{"xmin":-119.876864941,"xmax":-119.876492283,"ymin":34.4111213690001,"ymax":34.4114538160001}},"451":{"name":"Military Science (451)","bid":"451","center":{"lat":34.4168149435001,"lng":-119.84364490600001},"clips":{"xmin":-119.843893587,"xmax":-119.843396225,"ymin":34.4167674930001,"ymax":34.4168623940001}},"592":{"name":"Metal Sculpture Studio","bid":"592","center":{"lat":34.4117184985001,"lng":-119.84976312},"clips":{"xmin":-119.849853279,"xmax":-119.849672961,"ymin":34.4116596420001,"ymax":34.4117773550001}},"615":{"name":"Materials Research Lab","bid":"615","center":{"lat":34.414138096500096,"lng":-119.84156704},"clips":{"xmin":-119.841931784,"xmax":-119.841202296,"ymin":34.4139865560001,"ymax":34.4142896370001}},"6970":{"name":"Mark Villa","bid":"6970","center":{"lat":34.412196106500105,"lng":-119.874620177},"clips":{"xmin":-119.874774442,"xmax":-119.874465912,"ymin":34.4119908380001,"ymax":34.4124013750001}},"520":{"name":"Marine Science Research Building","bid":"520","center":{"lat":34.412587123500046,"lng":-119.842202375},"clips":{"xmin":-119.842278202,"xmax":-119.842126548,"ymin":34.4124795210001,"ymax":34.412694726}},"555":{"name":"Marine Biotechnology Lab","bid":"555","center":{"lat":34.4079653030001,"lng":-119.843258652},"clips":{"xmin":-119.843617844,"xmax":-119.84289946,"ymin":34.4076950370001,"ymax":34.4082355690001}},"7950":{"name":"Maintenance","bid":"7950","center":{"lat":34.413176439500106,"lng":-119.873508008},"clips":{"xmin":-119.873649113,"xmax":-119.873366903,"ymin":34.4130998050001,"ymax":34.4132530740001}},"892":{"name":"Madulce House","bid":"892","center":{"lat":34.4102187555001,"lng":-119.851795124},"clips":{"xmin":-119.851966642,"xmax":-119.851623606,"ymin":34.4101219450001,"ymax":34.4103155660001}},"876":{"name":"Loma Pelona","bid":"876","center":{"lat":34.410740261500095,"lng":-119.851677693},"clips":{"xmin":-119.851739552,"xmax":-119.851615834,"ymin":34.4106427850001,"ymax":34.4108377380001}},"235":{"name":"Life Science","bid":"235","center":{"lat":34.41192787650005,"lng":-119.843591893},"clips":{"xmin":-119.844145791,"xmax":-119.843037995,"ymin":34.4117284020001,"ymax":34.412127351}},"7920":{"name":"Laundry","bid":"7920","center":{"lat":34.4132430745001,"lng":-119.872905265},"clips":{"xmin":-119.873013042,"xmax":-119.872797488,"ymin":34.4131721000001,"ymax":34.4133140490001}},"540":{"name":"Lath House","bid":"540","center":{"lat":34.41310647900005,"lng":-119.84337041399999},"clips":{"xmin":-119.843453777,"xmax":-119.843287051,"ymin":34.4130489680001,"ymax":34.41316399}},"7097":{"name":"Las Amigas Children's Cottage B","bid":"7097","center":{"lat":34.4098716700001,"lng":-119.87639066599999},"clips":{"xmin":-119.876541224,"xmax":-119.876240108,"ymin":34.4097403840001,"ymax":34.4100029560001}},"7095":{"name":"Las Amigas Children's Cottage A","bid":"7095","center":{"lat":34.4098493630001,"lng":-119.8767881155},"clips":{"xmin":-119.876951232,"xmax":-119.876624999,"ymin":34.4097286900001,"ymax":34.4099700360001}},"550":{"name":"Lagoon Pump House","bid":"550","center":{"lat":34.40720374300005,"lng":-119.8431021735},"clips":{"xmin":-119.843164658,"xmax":-119.843039689,"ymin":34.407145884,"ymax":34.4072616020001}},"884":{"name":"La Cumbre House","bid":"884","center":{"lat":34.409273718000094,"lng":-119.85194985449999},"clips":{"xmin":-119.852084377,"xmax":-119.851815332,"ymin":34.4092015300001,"ymax":34.4093459060001}},"7925":{"name":"La Colina Offices","bid":"7925","center":{"lat":34.41206254250005,"lng":-119.872855962},"clips":{"xmin":-119.872976046,"xmax":-119.872735878,"ymin":34.411992049,"ymax":34.4121330360001}},"7945":{"name":"La Colina Classroom","bid":"7945","center":{"lat":34.411901865000104,"lng":-119.873402168},"clips":{"xmin":-119.873526864,"xmax":-119.873277472,"ymin":34.4117964330001,"ymax":34.4120072970001}},"7935":{"name":"La Colina Classroom","bid":"7935","center":{"lat":34.412010551500046,"lng":-119.873135599},"clips":{"xmin":-119.873250918,"xmax":-119.87302028,"ymin":34.4119484550001,"ymax":34.412072648}},"7985":{"name":"La Colina Classroom &amp; Office","bid":"7985","center":{"lat":34.4118257200001,"lng":-119.8727260835},"clips":{"xmin":-119.872804081,"xmax":-119.872648086,"ymin":34.4117212960001,"ymax":34.4119301440001}},"567":{"name":"Kohn Hall &amp; Kavli Institute","bid":"567","center":{"lat":34.4143067245001,"lng":-119.84045356499999},"clips":{"xmin":-119.840812827,"xmax":-119.840094303,"ymin":34.4140244200001,"ymax":34.4145890290001}},"275":{"name":"Koegl Autism Center","bid":"275","center":{"lat":34.415300600500046,"lng":-119.85088689599999},"clips":{"xmin":-119.850972192,"xmax":-119.8508016,"ymin":34.4152040880001,"ymax":34.415397113}},"591":{"name":"Kerr Hall","bid":"591","center":{"lat":34.41454753200005,"lng":-119.8468474215},"clips":{"xmin":-119.847276528,"xmax":-119.846418315,"ymin":34.4143843730001,"ymax":34.414710691}},"879":{"name":"Jalama House","bid":"879","center":{"lat":34.4092895375001,"lng":-119.852970759},"clips":{"xmin":-119.853123737,"xmax":-119.852817781,"ymin":34.4092326850001,"ymax":34.4093463900001}},"948":{"name":"Isla Vista Theater","bid":"948","center":{"lat":34.41137675200005,"lng":-119.8549571185},"clips":{"xmin":-119.855258381,"xmax":-119.854655856,"ymin":34.4112648830001,"ymax":34.411488621}},"243":{"name":"Intercollegiate Athletics","bid":"243","center":{"lat":34.4160058380001,"lng":-119.850457793},"clips":{"xmin":-119.850877169,"xmax":-119.850038417,"ymin":34.4157310580001,"ymax":34.4162806180001}},"515":{"name":"Humanities Social Sci &amp; Performing Arts Thtr(HSSB)","bid":"515","center":{"lat":34.41365010850005,"lng":-119.8504727355},"clips":{"xmin":-119.851130499,"xmax":-119.849814972,"ymin":34.413081778,"ymax":34.4142184390001}},"556":{"name":"Harold Frank Hall (Engineering I)","bid":"556","center":{"lat":34.41370012900005,"lng":-119.8416584495},"clips":{"xmin":-119.841851921,"xmax":-119.841464978,"ymin":34.413656335,"ymax":34.4137439230001}},"580":{"name":"Harder Stadium","bid":"580","center":{"lat":34.42032864350005,"lng":-119.85490416350001},"clips":{"xmin":-119.855048231,"xmax":-119.854760096,"ymin":34.4197310810001,"ymax":34.420926206}},"578":{"name":"Harder Stadium Offices","bid":"578","center":{"lat":34.41974864300005,"lng":-119.85459471850001},"clips":{"xmin":-119.854910976,"xmax":-119.854278461,"ymin":34.419619051,"ymax":34.4198782350001}},"6975":{"name":"Greenhouse","bid":"6975","center":{"lat":34.4111967015001,"lng":-119.87421266850001},"clips":{"xmin":-119.874287276,"xmax":-119.874138061,"ymin":34.4110769740001,"ymax":34.4113164290001}},"564":{"name":"Girvetz Hall","bid":"564","center":{"lat":34.41362225000005,"lng":-119.846891296},"clips":{"xmin":-119.847283904,"xmax":-119.846498688,"ymin":34.4132347820001,"ymax":34.414009718}},"526":{"name":"Geological Sciences (Webb Hall)","bid":"526","center":{"lat":34.41338247250005,"lng":-119.8436828945},"clips":{"xmin":-119.84411395,"xmax":-119.843251839,"ymin":34.413092121,"ymax":34.4136728240001}},"882":{"name":"Gaviota House","bid":"882","center":{"lat":34.40867471400005,"lng":-119.851895476},"clips":{"xmin":-119.851986008,"xmax":-119.851804944,"ymin":34.4085244390001,"ymax":34.408824989}},"860":{"name":"Santa Catalina Hall","bid":"860","center":{"lat":34.41818223050005,"lng":-119.8680086745},"clips":{"xmin":-119.868039193,"xmax":-119.867978156,"ymin":34.418119801,"ymax":34.4182446600001}},"370":{"name":"FM","bid":"370","center":{"lat":34.4201441860001,"lng":-119.852538239},"clips":{"xmin":-119.852721246,"xmax":-119.852355232,"ymin":34.4200222890001,"ymax":34.4202660830001}},"371":{"name":"FM","bid":"371","center":{"lat":34.420366512500095,"lng":-119.852905704},"clips":{"xmin":-119.853094727,"xmax":-119.852716681,"ymin":34.4202409710001,"ymax":34.4204920540001}},"972":{"name":"FM","bid":"972","center":{"lat":34.420190089,"lng":-119.8528603545},"clips":{"xmin":-119.853045656,"xmax":-119.852675053,"ymin":34.420066519,"ymax":34.420313659}},"439":{"name":"FM","bid":"439","center":{"lat":34.4205666685001,"lng":-119.8528939755},"clips":{"xmin":-119.853152356,"xmax":-119.852635595,"ymin":34.4203891720001,"ymax":34.4207441650001}},"584":{"name":"FM Stores","bid":"584","center":{"lat":34.421031577500045,"lng":-119.8525516155},"clips":{"xmin":-119.852811111,"xmax":-119.85229212,"ymin":34.420836873,"ymax":34.4212262820001}},"594":{"name":"FM Shop","bid":"594","center":{"lat":34.4211261050001,"lng":-119.85306731349999},"clips":{"xmin":-119.853252078,"xmax":-119.852882549,"ymin":34.4209514900001,"ymax":34.4213007200001}},"205":{"name":"Filter Building","bid":"205","center":{"lat":34.40748753800005,"lng":-119.84326211300001},"clips":{"xmin":-119.843344128,"xmax":-119.843180098,"ymin":34.4073509450001,"ymax":34.407624131}},"893":{"name":"Figueroa House","bid":"893","center":{"lat":34.410316592499996,"lng":-119.85141150850001},"clips":{"xmin":-119.851592567,"xmax":-119.85123045,"ymin":34.410241678,"ymax":34.410391507}},"7020":{"name":"Ferguson Center","bid":"7020","center":{"lat":34.41089194800005,"lng":-119.875551459},"clips":{"xmin":-119.875823683,"xmax":-119.875279235,"ymin":34.410733844,"ymax":34.4110500520001}},"365":{"name":"Fenita House","bid":"365","center":{"lat":34.4154897910001,"lng":-119.87307151499999},"clips":{"xmin":-119.873184152,"xmax":-119.872958878,"ymin":34.4153702820001,"ymax":34.4156093000001}},"581":{"name":"Faculty Club","bid":"581","center":{"lat":34.41200822350005,"lng":-119.85136821},"clips":{"xmin":-119.851460049,"xmax":-119.851276371,"ymin":34.4119697120001,"ymax":34.412046735}},"437":{"name":"Facilities Management (FM)","bid":"437","center":{"lat":34.4202593685001,"lng":-119.8523490165},"clips":{"xmin":-119.852643841,"xmax":-119.852054192,"ymin":34.4200812600001,"ymax":34.4204374770001}},"505":{"name":"Events Center (Thunderdome)","bid":"505","center":{"lat":34.4137770800001,"lng":-119.85132894649999},"clips":{"xmin":-119.851757329,"xmax":-119.850900564,"ymin":34.4134223280001,"ymax":34.4141318320001}},"408":{"name":"Ergo Lab","bid":"408","center":{"lat":34.41266525800005,"lng":-119.84463573549999},"clips":{"xmin":-119.844809396,"xmax":-119.844462075,"ymin":34.412588101,"ymax":34.4127424150001}},"565":{"name":"Environmental Health &amp; Safety","bid":"565","center":{"lat":34.420226476000096,"lng":-119.8504672225},"clips":{"xmin":-119.850509562,"xmax":-119.850424883,"ymin":34.4201887460001,"ymax":34.4202642060001}},"225":{"name":"Engineering Science (ESB)","bid":"225","center":{"lat":34.41562533,"lng":-119.84127108850001},"clips":{"xmin":-119.841675695,"xmax":-119.840866482,"ymin":34.41544279,"ymax":34.41580787}},"503":{"name":"Engineering II","bid":"503","center":{"lat":34.41475485150005,"lng":-119.841303073},"clips":{"xmin":-119.841576563,"xmax":-119.841029583,"ymin":34.414506685,"ymax":34.4150030180001}},"941":{"name":"Embarcadero Hall","bid":"941","center":{"lat":34.41210922950005,"lng":-119.85574457050001},"clips":{"xmin":-119.85598129,"xmax":-119.855507851,"ymin":34.411979881,"ymax":34.4122385780001}},"563":{"name":"Ellison Hall","bid":"563","center":{"lat":34.4155660400001,"lng":-119.845256459},"clips":{"xmin":-119.845645099,"xmax":-119.844867819,"ymin":34.4152155560001,"ymax":34.4159165240001}},"266":{"name":"Elings Hall","bid":"266","center":{"lat":34.41530171150005,"lng":-119.840019267},"clips":{"xmin":-119.840315339,"xmax":-119.839723195,"ymin":34.4148185640001,"ymax":34.415784859}},"406":{"name":"El Centro (Chicano Studies)","bid":"406","center":{"lat":34.4142477080001,"lng":-119.8444498505},"clips":{"xmin":-119.844593354,"xmax":-119.844306347,"ymin":34.4141552670001,"ymax":34.4143401490001}},"7965":{"name":"Educational Addition B","bid":"7965","center":{"lat":34.41047489700005,"lng":-119.8733737215},"clips":{"xmin":-119.873524972,"xmax":-119.873222471,"ymin":34.4103108730001,"ymax":34.410638921}},"7966":{"name":"Educational Addition A","bid":"7966","center":{"lat":34.410565623000096,"lng":-119.87419130800001},"clips":{"xmin":-119.874334667,"xmax":-119.874047949,"ymin":34.4103955000001,"ymax":34.4107357460001}},"7055":{"name":"Devereux Hall","bid":"7055","center":{"lat":34.41057201550005,"lng":-119.8763104845},"clips":{"xmin":-119.876670268,"xmax":-119.875950701,"ymin":34.410289762,"ymax":34.4108542690001}},"7905":{"name":"Del Sol","bid":"7905","center":{"lat":34.41305976700005,"lng":-119.872391624},"clips":{"xmin":-119.872584187,"xmax":-119.872199061,"ymin":34.412940086,"ymax":34.4131794480001}},"7940":{"name":"Del Mar","bid":"7940","center":{"lat":34.413008368999996,"lng":-119.8734016295},"clips":{"xmin":-119.873475604,"xmax":-119.873327655,"ymin":34.412928348,"ymax":34.41308839}},"7955":{"name":"De La Playa","bid":"7955","center":{"lat":34.41159189900005,"lng":-119.873341982},"clips":{"xmin":-119.873549266,"xmax":-119.873134698,"ymin":34.4114504550001,"ymax":34.411733343}},"549":{"name":"De La Guerra Commons","bid":"549","center":{"lat":34.4097005360001,"lng":-119.84492221849999},"clips":{"xmin":-119.845357017,"xmax":-119.84448742,"ymin":34.4093512220001,"ymax":34.4100498500001}},"875":{"name":"De Anza Resource Center","bid":"875","center":{"lat":34.40958625750005,"lng":-119.85282121},"clips":{"xmin":-119.852987458,"xmax":-119.852654962,"ymin":34.4095098290001,"ymax":34.409662686}},"525":{"name":"Davidson Library","bid":"525","center":{"lat":34.413612748000105,"lng":-119.8454847725},"clips":{"xmin":-119.845835752,"xmax":-119.845133793,"ymin":34.4128914400001,"ymax":34.4143340560001}},"891":{"name":"Cuyama House","bid":"891","center":{"lat":34.409943830000046,"lng":-119.85201945200001},"clips":{"xmin":-119.85209105,"xmax":-119.851947854,"ymin":34.409800734,"ymax":34.4100869260001}},"599":{"name":"Counseling and Career Services (Student Services)","bid":"599","center":{"lat":34.413404429500105,"lng":-119.8492265285},"clips":{"xmin":-119.849582171,"xmax":-119.848870886,"ymin":34.4131746180001,"ymax":34.4136342410001}},"532":{"name":"Coral Tree Cafe","bid":"532","center":{"lat":34.4158076130001,"lng":-119.8467231935},"clips":{"xmin":-119.846848069,"xmax":-119.846598318,"ymin":34.4157446820001,"ymax":34.4158705440001}},"883":{"name":"Condor House","bid":"883","center":{"lat":34.40898883350005,"lng":-119.852013581},"clips":{"xmin":-119.852135295,"xmax":-119.851891867,"ymin":34.4088379310001,"ymax":34.409139736}},"379":{"name":"Communications Services","bid":"379","center":{"lat":34.42252654100005,"lng":-119.8533265785},"clips":{"xmin":-119.853427016,"xmax":-119.853226141,"ymin":34.42249316,"ymax":34.4225599220001}},"378":{"name":"Communications Services","bid":"378","center":{"lat":34.42248106150009,"lng":-119.852827179},"clips":{"xmin":-119.852928168,"xmax":-119.85272619,"ymin":34.4224448460001,"ymax":34.4225172770001}},"494":{"name":"College of Creative Studies","bid":"494","center":{"lat":34.411078356000104,"lng":-119.8457978935},"clips":{"xmin":-119.846095719,"xmax":-119.845500068,"ymin":34.4108338070001,"ymax":34.4113229050001}},"575":{"name":"Cloud Clean Lab Geology","bid":"575","center":{"lat":34.41344406350005,"lng":-119.84306600599999},"clips":{"xmin":-119.843117184,"xmax":-119.843014828,"ymin":34.413307891,"ymax":34.4135802360001}},"362":{"name":"Cliff House","bid":"362","center":{"lat":34.407475662500104,"lng":-119.87863448050001},"clips":{"xmin":-119.878768874,"xmax":-119.878500087,"ymin":34.4073490700001,"ymax":34.4076022550001}},"7910":{"name":"Classrooms","bid":"7910","center":{"lat":34.4126223785001,"lng":-119.8720321},"clips":{"xmin":-119.872098048,"xmax":-119.871966152,"ymin":34.4125363150001,"ymax":34.4127084420001}},"878":{"name":"Cienega House","bid":"878","center":{"lat":34.409079382500096,"lng":-119.8532138715},"clips":{"xmin":-119.853282108,"xmax":-119.853145635,"ymin":34.4089142540001,"ymax":34.4092445110001}},"352":{"name":"Child Care Clubhouse","bid":"352","center":{"lat":34.41613087250005,"lng":-119.870203816},"clips":{"xmin":-119.870265873,"xmax":-119.870141759,"ymin":34.4160540680001,"ymax":34.416207677}},"557":{"name":"Chemistry","bid":"557","center":{"lat":34.41544585800005,"lng":-119.842602879},"clips":{"xmin":-119.843182473,"xmax":-119.842023285,"ymin":34.4152433680001,"ymax":34.415648348}},"552":{"name":"Cheadle Hall","bid":"552","center":{"lat":34.416263700500096,"lng":-119.846541549},"clips":{"xmin":-119.846874156,"xmax":-119.846208942,"ymin":34.4159440380001,"ymax":34.4165833630001}},"7070":{"name":"Chambers Cottage","bid":"7070","center":{"lat":34.4110233345001,"lng":-119.87667146000001},"clips":{"xmin":-119.876749286,"xmax":-119.876593634,"ymin":34.4109443040001,"ymax":34.4111023650001}},"507":{"name":"Central Stores (Receiving Mail Services)","bid":"507","center":{"lat":34.4231373895001,"lng":-119.856939079},"clips":{"xmin":-119.857229678,"xmax":-119.85664848,"ymin":34.4229017490001,"ymax":34.4233730300001}},"595":{"name":"Central Garage","bid":"595","center":{"lat":34.4204949410001,"lng":-119.85183800749999},"clips":{"xmin":-119.852016626,"xmax":-119.851659389,"ymin":34.4203710740001,"ymax":34.4206188080001}},"7915":{"name":"Central Dining Room","bid":"7915","center":{"lat":34.4125656640001,"lng":-119.87295451},"clips":{"xmin":-119.873064165,"xmax":-119.872844855,"ymin":34.4123878330001,"ymax":34.4127434950001}},"530":{"name":"Centennial House","bid":"530","center":{"lat":34.409061895500045,"lng":-119.84359062749999},"clips":{"xmin":-119.843715706,"xmax":-119.843465549,"ymin":34.4090113600001,"ymax":34.409112431}},"510":{"name":"Cent. Garage Storage","bid":"510","center":{"lat":34.4202462010001,"lng":-119.8520440865},"clips":{"xmin":-119.852075781,"xmax":-119.852012392,"ymin":34.4202191050001,"ymax":34.4202732970001}},"336":{"name":"Cent. Garage Office","bid":"336","center":{"lat":34.42046647700005,"lng":-119.85205676000001},"clips":{"xmin":-119.852098244,"xmax":-119.852015276,"ymin":34.4204305660001,"ymax":34.420502388}},"7085":{"name":"Cass Renee","bid":"7085","center":{"lat":34.410551780999995,"lng":-119.8772705895},"clips":{"xmin":-119.87742421,"xmax":-119.877116969,"ymin":34.410330076,"ymax":34.410773486}},"562":{"name":"Carrillo Commons","bid":"562","center":{"lat":34.4100061650001,"lng":-119.8527937505},"clips":{"xmin":-119.853165292,"xmax":-119.852422209,"ymin":34.4097352460001,"ymax":34.4102770840001}},"7930":{"name":"Carpentry &amp; Paint Shop","bid":"7930","center":{"lat":34.413264392500054,"lng":-119.87314392249999},"clips":{"xmin":-119.873239798,"xmax":-119.873048047,"ymin":34.4132325090001,"ymax":34.413296276}},"889":{"name":"Camuesa House","bid":"889","center":{"lat":34.409555359000095,"lng":-119.85165155300001},"clips":{"xmin":-119.851846643,"xmax":-119.851456463,"ymin":34.4094782110001,"ymax":34.4096325070001}},"538":{"name":"Campbell Hall","bid":"538","center":{"lat":34.41626411600005,"lng":-119.8452562445},"clips":{"xmin":-119.845502051,"xmax":-119.845010438,"ymin":34.4160604070001,"ymax":34.416467825}},"351":{"name":"Cameron Hall","bid":"351","center":{"lat":34.4165402835001,"lng":-119.87014054950001},"clips":{"xmin":-119.870316353,"xmax":-119.869964746,"ymin":34.4164750990001,"ymax":34.4166054680001}},"573":{"name":"Buchanan Hall","bid":"573","center":{"lat":34.41544022750005,"lng":-119.84456013650001},"clips":{"xmin":-119.844795829,"xmax":-119.844324444,"ymin":34.4152202600001,"ymax":34.415660195}},"572":{"name":"Broida Hall","bid":"572","center":{"lat":34.414147660000054,"lng":-119.843052401},"clips":{"xmin":-119.843813338,"xmax":-119.842291464,"ymin":34.4138875250001,"ymax":34.414407795}},"521":{"name":"Bren School of Environmental Science","bid":"521","center":{"lat":34.41318680250005,"lng":-119.8418944245},"clips":{"xmin":-119.842045306,"xmax":-119.841743543,"ymin":34.4130112540001,"ymax":34.413362351}},"539":{"name":"Bioscience Annex","bid":"539","center":{"lat":34.41310244650005,"lng":-119.84312520649999},"clips":{"xmin":-119.843227208,"xmax":-119.843023205,"ymin":34.4130381730001,"ymax":34.41316672}},"504":{"name":"Biological Sciences Instructional Facility","bid":"504","center":{"lat":34.4121748765001,"lng":-119.84315622150001},"clips":{"xmin":-119.843276656,"xmax":-119.843035787,"ymin":34.4120172070001,"ymax":34.4123325460001}},"571":{"name":"Biological Science 2","bid":"571","center":{"lat":34.4120252,"lng":-119.84261809399999},"clips":{"xmin":-119.842852,"xmax":-119.842384188,"ymin":34.41175,"ymax":34.4123004}},"324":{"name":"AS Bike Shop","bid":"324","center":{"lat":34.4143829040001,"lng":-119.8493050145},"clips":{"xmin":-119.849343705,"xmax":-119.849266324,"ymin":34.4143102420001,"ymax":34.4144555660001}},"522":{"name":"Baseball Facilities","bid":"522","center":{"lat":34.4186025485,"lng":-119.85257043600001},"clips":{"xmin":-119.852817446,"xmax":-119.852323426,"ymin":34.41838076,"ymax":34.418824337}},"357":{"name":"Barn","bid":"357","center":{"lat":34.41449560400005,"lng":-119.8699645625},"clips":{"xmin":-119.870024051,"xmax":-119.869905074,"ymin":34.4143913880001,"ymax":34.41459982}},"7030":{"name":"Barber Shop","bid":"7030","center":{"lat":34.41109310900005,"lng":-119.8756472905},"clips":{"xmin":-119.875754203,"xmax":-119.875540378,"ymin":34.411035601,"ymax":34.4111506170001}},"583":{"name":"Aviary","bid":"583","center":{"lat":34.4201378115001,"lng":-119.8552569515},"clips":{"xmin":-119.855325356,"xmax":-119.855188547,"ymin":34.4200855590001,"ymax":34.4201900640001}},"534":{"name":"Arts &amp; University Art Museum","bid":"534","center":{"lat":34.41261019000005,"lng":-119.849492775},"clips":{"xmin":-119.849545641,"xmax":-119.849439909,"ymin":34.412585746,"ymax":34.4126346340001}},"402":{"name":"Arts &amp; Lectures (Tickets Office)","bid":"402","center":{"lat":34.41679332300005,"lng":-119.844755188},"clips":{"xmin":-119.844815259,"xmax":-119.844695117,"ymin":34.4166702400001,"ymax":34.416916406}},"7015":{"name":"Art Classroom","bid":"7015","center":{"lat":34.40986131050005,"lng":-119.875509601},"clips":{"xmin":-119.875578657,"xmax":-119.875440545,"ymin":34.4097772980001,"ymax":34.409945323}},"880":{"name":"Arguello House","bid":"880","center":{"lat":34.40927392300005,"lng":-119.8526147885},"clips":{"xmin":-119.852749556,"xmax":-119.852480021,"ymin":34.4092015630001,"ymax":34.409346283}},"465":{"name":"Aquarium Facility","bid":"465","center":{"lat":34.4076457095001,"lng":-119.8434771225},"clips":{"xmin":-119.843603564,"xmax":-119.843350681,"ymin":34.4075538390001,"ymax":34.4077375800001}},"547":{"name":"Anacapa Hall","bid":"547","center":{"lat":34.4110234420001,"lng":-119.843026217},"clips":{"xmin":-119.843799731,"xmax":-119.842252703,"ymin":34.4105501870001,"ymax":34.4114966970001}},"7040":{"name":"Alpha","bid":"7040","center":{"lat":34.4111713455001,"lng":-119.8761393375},"clips":{"xmin":-119.876327903,"xmax":-119.875950772,"ymin":34.4110459560001,"ymax":34.4112967350001}},"6990":{"name":"Adult Cottages C","bid":"6990","center":{"lat":34.4117526650001,"lng":-119.87405605000001},"clips":{"xmin":-119.874238392,"xmax":-119.873873708,"ymin":34.4116215920001,"ymax":34.4118837380001}},"6980":{"name":"Adult Cottages B","bid":"6980","center":{"lat":34.412041403000046,"lng":-119.874265799},"clips":{"xmin":-119.874451851,"xmax":-119.874079747,"ymin":34.4119009250001,"ymax":34.412181881}}}